{
  "ADD": {
    "name": "Bole International",
    "city": "Addis Ababa",
    "country": "Ethiopia",
    "iata_code": "ADD",
    "latitude": 8.977889,
    "longitude": 38.799319,
    "timezone": "Africa/Addis_Ababa"
  },
  "AKL": {
    "name": "Auckland International",
    "city": "Auckland",
    "country": "New Zealand",
    "iata_code": "AKL",
    "latitude": -37.008056,
    "longitude": 174.791667,
    "timezone": "Pacific/Auckland"
  },
  "BKK": {
    "name": "Suvarnabhumi International",
    "city": "Bangkok",
    "country": "Thailand",
    "iata_code": "BKK",
    "latitude": 13.681108,
    "longitude": 100.747283,
    "timezone": "Asia/Bangkok"
  },
  "CDG": {
    "name": "Charles de Gaulle Airport",
    "city": "Paris",
    "country": "France",
    "iata_code": "CDG",
    "icao_code": "LFPG",
    "latitude": 49.009722,
    "longitude": 2.547778,
    "timezone": "Europe/Paris"
  },
  "DXB": {
    "name": "Dubai International",
    "city": "Dubai",
    "country": "United Arab Emirates",
    "iata_code": "DXB",
    "latitude": 25.252778,
    "longitude": 55.364444,
    "timezone": "Asia/Dubai"
  },
  "HKG": {
    "name": "Hong Kong International",
    "city": "Hong Kong",
    "country": "Hong Kong",
    "iata_code": "HKG",
    "latitude": 22.308889,
    "longitude": 113.914444,
    "timezone": "Asia/Hong_Kong"
  },
  "ICN": {
    "name": "Incheon International",
    "city": "Seoul",
    "country": "South Korea",
    "iata_code": "ICN",
    "latitude": 37.469075,
    "longitude": 126.450517,
    "timezone": "Asia/Seoul"
  },
  "IST": {
    "name": "Istanbul Airport",
    "city": "Istanbul",
    "country": "Turkey",
    "iata_code": "IST",
    "latitude": 41.275556,
    "longitude": 28.751944,
    "timezone": "Europe/Istanbul"
  },
  "LAX": {
    "name": "Los Angeles International",
    "city": "Los Angeles",
    "country": "United States",
    "iata_code": "LAX",
    "latitude": 33.942536,
    "longitude": -118.408075,
    "timezone": "America/Los_Angeles"
  },
  "LHR": {
    "name": "Heathrow Airport",
    "city": "London",
    "country": "United Kingdom",
    "iata_code": "LHR",
    "icao_code": "EGLL",
    "latitude": 51.4775,
    "longitude": -0.461389,
    "timezone": "Europe/London"
  },
  "SIN": {
    "name": "Singapore Changi",
    "city": "Singapore",
    "country": "Singapore",
    "iata_code": "SIN",
    "latitude": 1.359167,
    "longitude": 103.989444,
    "timezone": "Asia/Singapore"
  },
  "ZRH": {
    "name": "Zurich Airport",
    "city": "Zurich",
    "country": "Switzerland",
    "iata_code": "ZRH",
    "icao_code": "LSZH",
    "latitude": 47.464722,
    "longitude": 8.549167,
    "timezone": "Europe/Zurich"
  },
  "FRA": {
    "name": "Frankfurt Airport",
    "city": "Frankfurt",
    "country": "Germany",
    "iata_code": "FRA",
    "latitude": 50.0379,
    "longitude": 8.5622,
    "timezone": "Europe/Berlin"
  },
  "AMS": {
    "name": "Amsterdam Airport Schiphol",
    "city": "Amsterdam",
    "country": "Netherlands",
    "iata_code": "AMS",
    "icao_code": "EHAM",
    "latitude": 52.308613,
    "longitude": 4.763889,
    "timezone": "Europe/Amsterdam"
  },
  "MAD": {
    "name": "Adolfo Suárez Madrid–Barajas Airport",
    "city": "Madrid",
    "country": "Spain",
    "iata_code": "MAD",
    "icao_code": "LEMD",
    "latitude": 40.472222,
    "longitude": -3.560833,
    "timezone": "Europe/Madrid"
  },
  "FCO": {
    "name": "Leonardo da Vinci International Airport",
    "city": "Rome",
    "country": "Italy",
    "iata_code": "FCO",
    "icao_code": "LIRF",
    "latitude": 41.804444,
    "longitude": 12.250833,
    "timezone": "Europe/Rome"
  },
  "MUC": {
    "name": "Munich Airport",
    "city": "Munich",
    "country": "Germany",
    "iata_code": "MUC",
    "icao_code": "EDDM",
    "latitude": 48.3537,
    "longitude": 11.786,
    "timezone": "Europe/Berlin"
  },
  "BCN": {
    "name": "Barcelona–El Prat Airport",
    "city": "Barcelona",
    "country": "Spain",
    "iata_code": "BCN",
    "icao_code": "LEBL",
    "latitude": 41.296944,
    "longitude": 2.078333,
    "timezone": "Europe/Madrid"
  },
  "LGW": {
    "name": "Gatwick Airport",
    "city": "London",
    "country": "United Kingdom",
    "iata_code": "LGW",
    "icao_code": "EGKK",
    "latitude": 51.148056,
    "longitude": -0.190278,
    "timezone": "Europe/London"
  },
  "ORY": {
    "name": "Paris-Orly Airport",
    "city": "Paris",
    "country": "France",
    "iata_code": "ORY",
    "icao_code": "LFPO",
    "latitude": 48.725278,
    "longitude": 2.359444,
    "timezone": "Europe/Paris"
  },
  "DUB": {
    "name": "Dublin Airport",
    "city": "Dublin",
    "country": "Ireland",
    "iata_code": "DUB",
    "icao_code": "EIDW",
    "latitude": 53.421389,
    "longitude": -6.270000,
    "timezone": "Europe/Dublin"
  },
  "CPH": {
    "name": "Copenhagen Airport",
    "city": "Copenhagen",
    "country": "Denmark",
    "iata_code": "CPH",
    "icao_code": "EKCH",
    "latitude": 55.618056,
    "longitude": 12.656111,
    "timezone": "Europe/Copenhagen"
  },
  "OSL": {
    "name": "Oslo Airport, Gardermoen",
    "city": "Oslo",
    "country": "Norway",
    "iata_code": "OSL",
    "icao_code": "ENGM",
    "latitude": 60.193889,
    "longitude": 11.100278,
    "timezone": "Europe/Oslo"
  },
  "ARN": {
    "name": "Stockholm Arlanda Airport",
    "city": "Stockholm",
    "country": "Sweden",
    "iata_code": "ARN",
    "icao_code": "ESSA",
    "latitude": 59.651944,
    "longitude": 17.918611,
    "timezone": "Europe/Stockholm"
  },
  "VIE": {
    "name": "Vienna International Airport",
    "city": "Vienna",
    "country": "Austria",
    "iata_code": "VIE",
    "icao_code": "LOWW",
    "latitude": 48.110833,
    "longitude": 16.570833,
    "timezone": "Europe/Vienna"
  },
  "HEL": {
    "name": "Helsinki-Vantaa Airport",
    "city": "Helsinki",
    "country": "Finland",
    "iata_code": "HEL",
    "icao_code": "EFHK",
    "latitude": 60.317222,
    "longitude": 24.963333,
    "timezone": "Europe/Helsinki"
  }
} 